{
	"version": 8,
	"name": "osm",
	"metadata": {
		"maputnik:renderer": "mbgljs"
	},
	"glyphs": "https://torontotechweek.github.io/assets/fonts/{fontstack}/{range}.pbf",
	"sprite": "https://torontotechweek.github.io/assets/sprites/sprites",
	"sources": {
		"osm": {
			"type": "vector",
			"url": "https://vector.openstreetmap.org/shortbread_v1/tilejson.json"
		},
		"toronto_buildings": {
			"type": "vector",
			"tiles": ["https://torontotechweek.github.io/data/toronto_buildings/{z}/{x}/{y}.pbf"]
		},
		"toronto_neighborhoods_centroids": {
			"type": "geojson",
			"data": "https://torontotechweek.github.io/data/toronto_neighborhoods_centroids.geojson"
		},
		"bloor-danforth": {
			"type": "geojson",
			"data": {
				"type": "FeatureCollection",
				"name": "bloor-danforth",
				"crs": { "type": "name", "properties": { "name": "urn:ogc:def:crs:OGC:1.3:CRS84" } },
				"features": [
				{ "type": "Feature", "properties": { "name": "Bloor-Danforth" }, "geometry": { "type": "MultiLineString", "coordinates": [ [ [ -79.453125, 43.657055252840983 ], [ -79.484453201293945, 43.649801862243315 ], [ -79.487457275390611, 43.648435543364727 ], [ -79.490032196044922, 43.648373437222666 ], [ -79.495267868041992, 43.650112384926537 ], [ -79.499731063842773, 43.650671321710654 ], [ -79.526166915893555, 43.645019610189209 ], [ -79.527626037597642, 43.644460620811564 ], [ -79.536294937133789, 43.636944814118415 ] ], [ [ -79.264554977416992, 43.732282290922633 ], [ -79.267730712890625, 43.730793808095058 ], [ -79.274082183837891, 43.723971121796119 ], [ -79.275283813476577, 43.721862134263269 ], [ -79.278631210327148, 43.714231941600836 ], [ -79.281034469604492, 43.700209705230016 ], [ -79.281978607177734, 43.698223990721324 ], [ -79.284296035766602, 43.696548492951756 ], [ -79.292449951171861, 43.693445595677417 ], [ -79.299573898315444, 43.68972190701718 ], [ -79.309101104736342, 43.687301385409 ], [ -79.338283538818359, 43.68103240104945 ], [ -79.358024597167983, 43.677245865460129 ], [ -79.360685348510756, 43.675818093283411 ], [ -79.366607666015639, 43.674700682665431 ], [ -79.371929168701186, 43.6722795549464 ], [ -79.376134872436538, 43.672465799008023 ], [ -79.394502639770508, 43.669299571356085 ], [ -79.412956237792969, 43.665450206898392 ], [ -79.433298110961914, 43.660607107430899 ], [ -79.450120925903335, 43.657750737415114 ], [ -79.453125, 43.657057386241569 ] ] ] } }
				]
			}
		},
		"bloor-danforth-stations": {
			"type": "geojson",
			"data": {
				"type": "FeatureCollection",
				"name": "bloor-danforth-stations",
				"crs": { "type": "name", "properties": { "name": "urn:ogc:def:crs:OGC:1.3:CRS84" } },
				"features": [
				{ "type": "Feature", "properties": { "station": "Jane" }, "geometry": { "type": "Point", "coordinates": [ -79.484453201293945, 43.649801862243315 ] } },
				{ "type": "Feature", "properties": { "station": "Kipling" }, "geometry": { "type": "Point", "coordinates": [ -79.536294937133789, 43.636944814118415 ] } },
				{ "type": "Feature", "properties": { "station": "Old Mill" }, "geometry": { "type": "Point", "coordinates": [ -79.495096206665025, 43.650050280518322 ] } },
				{ "type": "Feature", "properties": { "station": "Islington" }, "geometry": { "type": "Point", "coordinates": [ -79.524621963500977, 43.645330157595879 ] } },
				{ "type": "Feature", "properties": { "station": "Keele" }, "geometry": { "type": "Point", "coordinates": [ -79.459819793701158, 43.655453123795901 ] } },
				{ "type": "Feature", "properties": { "station": "Runnymede" }, "geometry": { "type": "Point", "coordinates": [ -79.476213455200195, 43.651664974261216 ] } },
				{ "type": "Feature", "properties": { "station": "High Park" }, "geometry": { "type": "Point", "coordinates": [ -79.466257095336914, 43.6540248331819 ] } },
				{ "type": "Feature", "properties": { "station": "Royal York" }, "geometry": { "type": "Point", "coordinates": [ -79.511318206787109, 43.64812501201223 ] } },
				{ "type": "Feature", "properties": { "station": "Sherbourne" }, "geometry": { "type": "Point", "coordinates": [ -79.37682151794435, 43.6723416363645 ] } },
				{ "type": "Feature", "properties": { "station": "Ossington" }, "geometry": { "type": "Point", "coordinates": [ -79.42591667175293, 43.662407792603659 ] } },
				{ "type": "Feature", "properties": { "station": "Bathurst" }, "geometry": { "type": "Point", "coordinates": [ -79.411497116088867, 43.665698560441818 ] } },
				{ "type": "Feature", "properties": { "station": "St. George" }, "geometry": { "type": "Point", "coordinates": [ -79.399309158325195, 43.668244125020109 ] } },
				{ "type": "Feature", "properties": { "station": "Broadview" }, "geometry": { "type": "Point", "coordinates": [ -79.358797073364258, 43.676811329698303 ] } },
				{ "type": "Feature", "properties": { "station": "Greenwood" }, "geometry": { "type": "Point", "coordinates": [ -79.330301284790039, 43.682832473505869 ] } },
				{ "type": "Feature", "properties": { "station": "Main Street" }, "geometry": { "type": "Point", "coordinates": [ -79.301977157592773, 43.688977141541557 ] } },
				{ "type": "Feature", "properties": { "station": "Chester" }, "geometry": { "type": "Point", "coordinates": [ -79.352273941040039, 43.678363228683914 ] } },
				{ "type": "Feature", "properties": { "station": "Warden" }, "geometry": { "type": "Point", "coordinates": [ -79.279232025146484, 43.711192000714085 ] } },
				{ "type": "Feature", "properties": { "station": "Kennedy" }, "geometry": { "type": "Point", "coordinates": [ -79.264554977416992, 43.732282290922633 ] } },
				{ "type": "Feature", "properties": { "station": "Bloor-Yonge" }, "geometry": { "type": "Point", "coordinates": [ -79.385747909545913, 43.670975830331784 ] } },
				{ "type": "Feature", "properties": { "station": "Spadina" }, "geometry": { "type": "Point", "coordinates": [ -79.40394401550293, 43.667250746808932 ] } },
				{ "type": "Feature", "properties": { "station": "Dufferin" }, "geometry": { "type": "Point", "coordinates": [ -79.435443878173828, 43.660234545135012 ] } },
				{ "type": "Feature", "properties": { "station": "Lansdowne" }, "geometry": { "type": "Point", "coordinates": [ -79.442653656005874, 43.659116844376214 ] } },
				{ "type": "Feature", "properties": { "station": "Castle Frank" }, "geometry": { "type": "Point", "coordinates": [ -79.368495941162124, 43.673831571132908 ] } },
				{ "type": "Feature", "properties": { "station": "Dundas West" }, "geometry": { "type": "Point", "coordinates": [ -79.452438354492202, 43.657191866518097 ] } },
				{ "type": "Feature", "properties": { "station": "Christie" }, "geometry": { "type": "Point", "coordinates": [ -79.418363571166992, 43.664084244043032 ] } },
				{ "type": "Feature", "properties": { "station": "Pape" }, "geometry": { "type": "Point", "coordinates": [ -79.345149993896484, 43.6797288665895 ] } },
				{ "type": "Feature", "properties": { "station": "Bay" }, "geometry": { "type": "Point", "coordinates": [ -79.389867782592773, 43.670230832122307 ] } },
				{ "type": "Feature", "properties": { "station": "Coxwell" }, "geometry": { "type": "Point", "coordinates": [ -79.323091506958022, 43.684322147798014 ] } },
				{ "type": "Feature", "properties": { "station": "Donlands" }, "geometry": { "type": "Point", "coordinates": [ -79.337768554687514, 43.681156545711424 ] } },
				{ "type": "Feature", "properties": { "station": "Woodbine" }, "geometry": { "type": "Point", "coordinates": [ -79.312963485717788, 43.686556589877945 ] } },
				{ "type": "Feature", "properties": { "station": "Victoria Park" }, "geometry": { "type": "Point", "coordinates": [ -79.289445877075195, 43.694624715554944 ] } }
				]
			}
		},
		"yonge-university": {
			"type": "geojson",
			"data": {
				"type": "FeatureCollection",
				"name": "yonge-university",
				"crs": { "type": "name", "properties": { "name": "urn:ogc:def:crs:OGC:1.3:CRS84" } },
				"features": [
				{ "type": "Feature", "properties": { "name": "Yonge-University" }, "geometry": { "type": "MultiLineString", "coordinates": [ [ [ -79.527282714843736, 43.793526058243145 ], [ -79.524364471435533, 43.785904997970007 ], [ -79.522819519042969, 43.782744761157332 ], [ -79.521102905273438, 43.780637843802623 ], [ -79.51904296875, 43.779522386908049 ], [ -79.497413635253906, 43.773448978732581 ], [ -79.495182037353516, 43.77245734331018 ], [ -79.4937229156494, 43.771279754889804 ], [ -79.492177963256836, 43.767870815598094 ], [ -79.489173889160142, 43.756340963163296 ], [ -79.487886428833008, 43.754977070222381 ], [ -79.486083984375, 43.753861134694191 ], [ -79.482564926147447, 43.753055168315313 ], [ -79.472522735595703, 43.754791082412801 ], [ -79.467887878417969, 43.754543097767517 ], [ -79.465913772583008, 43.754171118872755 ], [ -79.464282989501939, 43.753365156668657 ], [ -79.462480545043945, 43.750451202754704 ], [ -79.460077285766616, 43.744064807597127 ], [ -79.453125, 43.738985579995436 ] ], [ [ -79.453125, 43.738985579995436 ], [ -79.452438354492202, 43.738483904505379 ], [ -79.450807571411147, 43.736561472984235 ], [ -79.448919296264663, 43.731351993490613 ], [ -79.447889328002944, 43.725521800557566 ], [ -79.442911148071289, 43.712680970619544 ], [ -79.438447952270508, 43.7054218929241 ], [ -79.436130523681641, 43.699092748910864 ], [ -79.434328079223647, 43.696176153756106 ], [ -79.431152343750014, 43.693259416735337 ], [ -79.427461624145522, 43.691459657163122 ], [ -79.419221878051758, 43.689535716515266 ], [ -79.416646957397475, 43.686742789627694 ], [ -79.414844512939467, 43.68301868481533 ], [ -79.411754608154311, 43.682894544006565 ], [ -79.41029548645021, 43.682273836109566 ], [ -79.404201507568374, 43.667809524075615 ], [ -79.402484893798828, 43.667623265564693 ], [ -79.395704269409194, 43.668927063003785 ], [ -79.394416809082031, 43.668678722817887 ], [ -79.391241073608398, 43.663649612979967 ], [ -79.39081192016603, 43.660607107430899 ], [ -79.386262893676772, 43.650050280518322 ], [ -79.384546279907241, 43.647193408322202 ], [ -79.382486343383789, 43.645454376109036 ], [ -79.378795623779311, 43.646137573339885 ], [ -79.377679824829102, 43.64682076280053 ], [ -79.377508163452163, 43.64812501201223 ], [ -79.383172988891602, 43.661414317807726 ], [ -79.383516311645508, 43.665263941066527 ], [ -79.394159317016602, 43.690218412196579 ], [ -79.395360946655288, 43.691583780246901 ], [ -79.397420883178725, 43.698286045295156 ], [ -79.398365020751953, 43.703188153686312 ], [ -79.398365020751953, 43.706973051758276 ], [ -79.405145645141602, 43.736995575819471 ], [ -79.406003952026367, 43.743568748388569 ], [ -79.408407211303711, 43.750265200879312 ], [ -79.409093856811523, 43.75491507435008 ], [ -79.41553115844728, 43.779770268016392 ] ] ] } }
				]
			}
		},
		"yonge-university-stations": {
			"type": "geojson",
			"data": {
				"type": "FeatureCollection",
				"name": "yonge-university-stations",
				"crs": { "type": "name", "properties": { "name": "urn:ogc:def:crs:OGC:1.3:CRS84" } },
				"features": [
				{ "type": "Feature", "properties": { "station": "Sheppard West" }, "geometry": { "type": "Point", "coordinates": [ -79.462480545043945, 43.750451202754704 ] } },
				{ "type": "Feature", "properties": { "station": "Pioneer Village" }, "geometry": { "type": "Point", "coordinates": [ -79.511661529541016, 43.777539301044776 ] } },
				{ "type": "Feature", "properties": { "station": "Finch West" }, "geometry": { "type": "Point", "coordinates": [ -79.490976333618164, 43.763469897580165 ] } },
				{ "type": "Feature", "properties": { "station": "Highway 407" }, "geometry": { "type": "Point", "coordinates": [ -79.523248672485337, 43.783550327582354 ] } },
				{ "type": "Feature", "properties": { "station": "Downsview Park" }, "geometry": { "type": "Point", "coordinates": [ -79.478359222412095, 43.753613146195242 ] } },
				{ "type": "Feature", "properties": { "station": "Vaughan Metropolitan Centre" }, "geometry": { "type": "Point", "coordinates": [ -79.527282714843736, 43.793526058243145 ] } },
				{ "type": "Feature", "properties": { "station": "York University" }, "geometry": { "type": "Point", "coordinates": [ -79.499645233154283, 43.774130718547418 ] } },
				{ "type": "Feature", "properties": { "station": "Sheppard West" }, "geometry": { "type": "Point", "coordinates": [ -79.462480545043945, 43.750451202754704 ] } },
				{ "type": "Feature", "properties": { "station": "St. Patrick" }, "geometry": { "type": "Point", "coordinates": [ -79.38832283020021, 43.65477003252321 ] } },
				{ "type": "Feature", "properties": { "station": "Eglinton" }, "geometry": { "type": "Point", "coordinates": [ -79.398450851440444, 43.706724869042169 ] } },
				{ "type": "Feature", "properties": { "station": "Spadina" }, "geometry": { "type": "Point", "coordinates": [ -79.404716491699233, 43.668927063003785 ] } },
				{ "type": "Feature", "properties": { "station": "Dundas" }, "geometry": { "type": "Point", "coordinates": [ -79.380941390991211, 43.656322501450333 ] } },
				{ "type": "Feature", "properties": { "station": "Sheppard-Yonge" }, "geometry": { "type": "Point", "coordinates": [ -79.410896301269531, 43.761486279385331 ] } },
				{ "type": "Feature", "properties": { "station": "Lawrence" }, "geometry": { "type": "Point", "coordinates": [ -79.402141571044922, 43.724963560827639 ] } },
				{ "type": "Feature", "properties": { "station": "King" }, "geometry": { "type": "Point", "coordinates": [ -79.377937316894517, 43.649118706689151 ] } },
				{ "type": "Feature", "properties": { "station": "Bloor-Yonge" }, "geometry": { "type": "Point", "coordinates": [ -79.385747909545913, 43.670975830331784 ] } },
				{ "type": "Feature", "properties": { "station": "St. Clair" }, "geometry": { "type": "Point", "coordinates": [ -79.393386840820312, 43.688294431731592 ] } },
				{ "type": "Feature", "properties": { "station": "Osgoode" }, "geometry": { "type": "Point", "coordinates": [ -79.386606216430678, 43.650857632816113 ] } },
				{ "type": "Feature", "properties": { "station": "Union" }, "geometry": { "type": "Point", "coordinates": [ -79.379138946533217, 43.646013356239493 ] } },
				{ "type": "Feature", "properties": { "station": "Lawrence West" }, "geometry": { "type": "Point", "coordinates": [ -79.444198608398452, 43.716031017652014 ] } },
				{ "type": "Feature", "properties": { "station": "Queen" }, "geometry": { "type": "Point", "coordinates": [ -79.37922477722168, 43.652410202885648 ] } },
				{ "type": "Feature", "properties": { "station": "Museum" }, "geometry": { "type": "Point", "coordinates": [ -79.39355850219728, 43.66737491998439 ] } },
				{ "type": "Feature", "properties": { "station": "Yorkdale" }, "geometry": { "type": "Point", "coordinates": [ -79.447889328002944, 43.725583826873113 ] } },
				{ "type": "Feature", "properties": { "station": "Rosedale" }, "geometry": { "type": "Point", "coordinates": [ -79.388494491577148, 43.677059636233238 ] } },
				{ "type": "Feature", "properties": { "station": "Queen's Park" }, "geometry": { "type": "Point", "coordinates": [ -79.390468597412124, 43.659861980527253 ] } },
				{ "type": "Feature", "properties": { "station": "Wellesley" }, "geometry": { "type": "Point", "coordinates": [ -79.383516311645508, 43.665263941066527 ] } },
				{ "type": "Feature", "properties": { "station": "St. George" }, "geometry": { "type": "Point", "coordinates": [ -79.399309158325195, 43.668244125020109 ] } },
				{ "type": "Feature", "properties": { "station": "St Clair West" }, "geometry": { "type": "Point", "coordinates": [ -79.415359497070312, 43.683825593810745 ] } },
				{ "type": "Feature", "properties": { "station": "North York Centre" }, "geometry": { "type": "Point", "coordinates": [ -79.412784576416016, 43.768800545582742 ] } },
				{ "type": "Feature", "properties": { "station": "Summerhill" }, "geometry": { "type": "Point", "coordinates": [ -79.391241073608398, 43.683329035713371 ] } },
				{ "type": "Feature", "properties": { "station": "Eglinton West" }, "geometry": { "type": "Point", "coordinates": [ -79.435958862304688, 43.698844533569719 ] } },
				{ "type": "Feature", "properties": { "station": "Wilson" }, "geometry": { "type": "Point", "coordinates": [ -79.449949264526367, 43.734080824982009 ] } },
				{ "type": "Feature", "properties": { "station": "Glencairn" }, "geometry": { "type": "Point", "coordinates": [ -79.441194534301758, 43.709516865352668 ] } },
				{ "type": "Feature", "properties": { "station": "Finch" }, "geometry": { "type": "Point", "coordinates": [ -79.41553115844728, 43.779770268016392 ] } },
				{ "type": "Feature", "properties": { "station": "College" }, "geometry": { "type": "Point", "coordinates": [ -79.383172988891602, 43.661414317807726 ] } },
				{ "type": "Feature", "properties": { "station": "York Mills" }, "geometry": { "type": "Point", "coordinates": [ -79.40617561340332, 43.744250828740604 ] } },
				{ "type": "Feature", "properties": { "station": "St. Andrew" }, "geometry": { "type": "Point", "coordinates": [ -79.384803771972656, 43.647628158508951 ] } },
				{ "type": "Feature", "properties": { "station": "Davisville" }, "geometry": { "type": "Point", "coordinates": [ -79.397249221801758, 43.697975771783746 ] } },
				{ "type": "Feature", "properties": { "station": "Dupont" }, "geometry": { "type": "Point", "coordinates": [ -79.407119750976577, 43.674824840428272 ] } }
				]
			}
		},
		"eglinton-crosstown": {
			"type": "geojson",
			"data": {
				"type": "FeatureCollection",
				"name": "eglinton-crosstown",
				"crs": { "type": "name", "properties": { "name": "urn:ogc:def:crs:OGC:1.3:CRS84" } },
				"features": [
				{ "type": "Feature", "properties": { "name": "Eglinton Crosstown LRT" }, "geometry": { "type": "MultiLineString", "coordinates": [ [ [ -79.453125, 43.694840261278436 ], [ -79.464626312255845, 43.692142330944982 ], [ -79.470376968383775, 43.691211410224895 ], [ -79.487285614013672, 43.687363451285826 ] ], [ [ -79.264554977416992, 43.732282290922633 ], [ -79.26876068115233, 43.732034213020391 ], [ -79.300603866577163, 43.724839506847843 ], [ -79.304723739624023, 43.724653425396461 ], [ -79.31553840637207, 43.726204086496111 ], [ -79.319057464599609, 43.725955983417613 ], [ -79.33038711547853, 43.723102724156377 ], [ -79.354162216186538, 43.715782872442347 ], [ -79.435958862304688, 43.698844533569719 ], [ -79.453125, 43.694833594450991 ] ] ] } }
				]
			}
		},
		"eglinton-crosstown-stations": {
			"type": "geojson",
			"data": {
				"type": "FeatureCollection",
				"name": "eglinton-crosstown-stations",
				"crs": { "type": "name", "properties": { "name": "urn:ogc:def:crs:OGC:1.3:CRS84" } },
				"features": [
				{ "type": "Feature", "properties": { "station": "Caledonia" }, "geometry": { "type": "Point", "coordinates": [ -79.464626312255845, 43.692142330944982 ] } },
				{ "type": "Feature", "properties": { "station": "Mount Dennis" }, "geometry": { "type": "Point", "coordinates": [ -79.487285614013672, 43.687363451285826 ] } },
				{ "type": "Feature", "properties": { "station": "Keelesdale" }, "geometry": { "type": "Point", "coordinates": [ -79.475097656249986, 43.690156349273934 ] } },
				{ "type": "Feature", "properties": { "station": "Chaplin" }, "geometry": { "type": "Point", "coordinates": [ -79.417333602905288, 43.702753805835684 ] } },
				{ "type": "Feature", "properties": { "station": "Hakimi Lebovic" }, "geometry": { "type": "Point", "coordinates": [ -79.291505813598633, 43.727072439178528 ] } },
				{ "type": "Feature", "properties": { "station": "Eglinton" }, "geometry": { "type": "Point", "coordinates": [ -79.398622512817383, 43.706662823202585 ] } },
				{ "type": "Feature", "properties": { "station": "Cedarvale" }, "geometry": { "type": "Point", "coordinates": [ -79.435958862304688, 43.698844533569719 ] } },
				{ "type": "Feature", "properties": { "station": "Birchmount" }, "geometry": { "type": "Point", "coordinates": [ -79.277944564819336, 43.730049552808595 ] } },
				{ "type": "Feature", "properties": { "station": "Forest Hill" }, "geometry": { "type": "Point", "coordinates": [ -79.425573348999038, 43.701016382964191 ] } },
				{ "type": "Feature", "properties": { "station": "Sunnybrook Park" }, "geometry": { "type": "Point", "coordinates": [ -79.349956512451172, 43.717085623329119 ] } },
				{ "type": "Feature", "properties": { "station": "Ionview" }, "geometry": { "type": "Point", "coordinates": [ -79.271163940429688, 43.73141401376899 ] } },
				{ "type": "Feature", "properties": { "station": "Aga Khan Park & Museum" }, "geometry": { "type": "Point", "coordinates": [ -79.333992004394531, 43.722048224384956 ] } },
				{ "type": "Feature", "properties": { "station": "Leaside" }, "geometry": { "type": "Point", "coordinates": [ -79.377164840698256, 43.711067918218824 ] } },
				{ "type": "Feature", "properties": { "station": "Wynford" }, "geometry": { "type": "Point", "coordinates": [ -79.325323104858398, 43.724405315895488 ] } },
				{ "type": "Feature", "properties": { "station": "Fairbank" }, "geometry": { "type": "Point", "coordinates": [ -79.450206756591797, 43.695617640627653 ] } },
				{ "type": "Feature", "properties": { "station": "O'Connor" }, "geometry": { "type": "Point", "coordinates": [ -79.302577972412109, 43.724653425396461 ] } },
				{ "type": "Feature", "properties": { "station": "Kennedy" }, "geometry": { "type": "Point", "coordinates": [ -79.264554977416992, 43.732282290922633 ] } },
				{ "type": "Feature", "properties": { "station": "Mount Pleasant" }, "geometry": { "type": "Point", "coordinates": [ -79.39021110534668, 43.708400082434665 ] } },
				{ "type": "Feature", "properties": { "station": "Golden Mile" }, "geometry": { "type": "Point", "coordinates": [ -79.287643432617188, 43.72794077927287 ] } },
				{ "type": "Feature", "properties": { "station": "Sloane" }, "geometry": { "type": "Point", "coordinates": [ -79.313478469848633, 43.725955983417613 ] } },
				{ "type": "Feature", "properties": { "station": "Laird" }, "geometry": { "type": "Point", "coordinates": [ -79.364805221557617, 43.713549519314277 ] } },
				{ "type": "Feature", "properties": { "station": "Avenue" }, "geometry": { "type": "Point", "coordinates": [ -79.408493041992188, 43.704615274467301 ] } },
				{ "type": "Feature", "properties": { "station": "Pharmacy" }, "geometry": { "type": "Point", "coordinates": [ -79.297513961791992, 43.725707879311507 ] } },
				{ "type": "Feature", "properties": { "station": "Oakwood" }, "geometry": { "type": "Point", "coordinates": [ -79.442825317382827, 43.697293164407093 ] } },
				{ "type": "Feature", "properties": { "station": "Science Centre" }, "geometry": { "type": "Point", "coordinates": [ -79.338884353637695, 43.720497455709157 ] } }
				]			}
		}
	},
	"layers": [
		{
			"id": "background",
			"type": "background",
			"paint": {
				"background-color": "#EEEDEA"
			}
		},
		{
			"source": "osm",
			"id": "water",
			"type": "fill",
			"source-layer": "water_polygons",
			"filter": [ "in", "kind", "water", "river", "reservoir", "basin", "dock" ],
			"paint": {
				"fill-color": "#04304C"
			}
		},
		{
			"source": "osm",
			"id": "waterway",
			"type": "line",
			"source-layer": "water_lines",
			"filter": [ "all", [ "in", "kind", "river" ], [ "!=", "tunnel", true ], [ "!=", "bridge", true ] ],
			"paint": {
				"line-color": "#04304C",
				"line-width": 1,
				"line-opacity": { "stops": [ [ 5, 0 ], [ 6, 1 ] ] }
			}
		},
		{
			"id": "ferry",
			"type": "line",
			"source": "osm",
			"source-layer": "ferries",
			"paint": {
			  "line-color": "hsl(200, 100%, 60%)",
			  "line-dasharray": [2, 2],
			  "line-width": 1
			}
		},	  
		{
			"source": "osm",
			"id": "airport-taxiway",
			"type": "line",
			"source-layer": "streets",
			"filter": [ "in", "kind", "taxiway" ],
			"paint": {
				"line-color": "hsl(214, 23%, 90%)",
				"line-width": { "stops": [ [ 13, 0 ], [ 14, 1 ], [ 15, 8 ], [ 16, 12 ], [ 18, 18 ], [ 20, 36 ] ] },
				"line-opacity": { "stops": [ [ 13, 0 ], [ 14, 1 ] ] }
			},
			"layout": {
				"line-join": "round"
			}
		},
		{
			"source": "osm",
			"id": "airport-area",
			"type": "fill",
			"source-layer": "street_polygons",
			"filter": [ "in", "kind", "runway", "taxiway" ],
			"paint": {
				"fill-color": "hsl(214, 23%, 90%)",
				"fill-opacity": { "stops": [ [ 11, 0 ], [ 12, 1 ] ] }
			}
		},
		{
			"source": "osm",
			"id": "highway-minor",
			"type": "line",
			"source-layer": "streets",
			"filter": [ "in", "kind", "unclassified", "residential", "living_street" ],
			"paint": {
				"line-color": "#04304C",
				"line-width": [ "interpolate", [ "linear" ], [ "zoom" ], 14, 0, 16, 1 ],
				"line-opacity": [ "interpolate", [ "linear" ], [ "zoom" ], 14, 0, 15, 1 ]
			},
			"layout": {
				"line-join": "round",
				"line-cap": "round"
			},
			"minzoom": 14
		},
		{
			"source": "osm",
			"id": "highway-major",
			"type": "line",
			"source-layer": "streets",
			"filter": [ "in", "kind", "motorway", "trunk", "primary", "secondary", "tertiary" ],
			"paint": {
				"line-color": "#04304C",
				"line-width": [ "interpolate", [ "linear" ], [ "zoom" ], 11, 0, 13, 1 ],
				"line-opacity": [ "interpolate", [ "linear" ], [ "zoom" ], 11, 0, 12, 1 ]
			},
			"layout": {
				"line-join": "round",
				"line-cap": "round"
			},
			"minzoom": 11
		},
		{
			"source": "osm",
			"id": "railway-outline",
			"type": "line",
			"source-layer": "streets",
			"filter": [ "all", [ "in", "kind", "rail" ], [ "!=", "bridge", true ], [ "!=", "tunnel", true ] ],
			"paint": {
				"line-color": "#04304C",
				"line-width": { "stops": [ [ 8, 1 ], [ 13, 1 ], [ 15, 3 ], [ 16, 4 ], [ 18, 8 ], [ 19, 11 ], [ 20, 14 ] ] },
				"line-opacity": { "stops": [ [ 14, 0 ], [ 15, 1 ] ] }
			}
		},
		{
			"source": "osm",
			"id": "railway",
			"type": "line",
			"source-layer": "streets",
			"filter": [ "all", [ "in", "kind", "rail" ], [ "!=", "bridge", true ], [ "!=", "tunnel", true ] ],
			"paint": {
				"line-color": "#EEEDEA",
				"line-width": { "stops": [ [ 8, 1 ], [ 13, 1 ], [ 15, 2 ], [ 16, 3 ], [ 18, 6 ], [ 19, 8 ], [ 20, 10 ] ] },
				"line-dasharray": [ 2, 2 ],
				"line-opacity": { "stops": [ [ 14, 0 ], [ 15, 1 ] ] }
			}
		},
		{
			"source": "bloor-danforth",
			"id": "bloor-danforth-outline",
			"type": "line",
			"paint": {
				"line-color": "#00923f",
				"line-width": { "stops": [ [ 12, 6 ], [ 18, 12 ] ] },
				"line-opacity": [ "interpolate", [ "linear" ], [ "zoom" ], 11, 0, 12, 1, 13, 1, 14, 0 ]
			},
			"layout": {
				"line-join": "round",
				"line-cap": "round"
			}
		},		
		{
			"source": "bloor-danforth",
			"id": "bloor-danforth",
			"type": "line",
			"paint": {
				"line-color": "#EEEDEA",
				"line-width": { "stops": [ [ 12, 4 ], [ 18, 10 ] ] },
				"line-opacity": [ "interpolate", [ "linear" ], [ "zoom" ], 11, 0, 12, 1, 13, 1, 14, 0 ]
			},
			"layout": {
				"line-join": "round",
				"line-cap": "round"
			}
		},
		{
			"source": "yonge-university",
			"id": "yonge-university-outline",
			"type": "line",
			"paint": {
				"line-color": "#f8c300",
				"line-width": { "stops": [ [ 12, 6 ], [ 18, 12 ] ] },
				"line-opacity": [ "interpolate", [ "linear" ], [ "zoom" ], 11, 0, 12, 1, 13, 1, 14, 0 ]
			},
			"layout": {
				"line-join": "round",
				"line-cap": "round"
			}
		},		
		{
			"source": "yonge-university",
			"id": "yonge-university",
			"type": "line",
			"paint": {
				"line-color": "#EEEDEA",
				"line-width": { "stops": [ [ 12, 4 ], [ 18, 10 ] ] },
				"line-opacity": [ "interpolate", [ "linear" ], [ "zoom" ], 11, 0, 12, 1, 13, 1, 14, 0 ]
			},
			"layout": {
				"line-join": "round",
				"line-cap": "round"
			}
		},
		{
			"source": "eglinton-crosstown",
			"id": "eglinton-crosstown-outline",
			"type": "line",
			"paint": {
				"line-color": "#f67f24",
				"line-width": { "stops": [ [ 12, 6 ], [ 18, 12 ] ] },
				"line-opacity": [ "interpolate", [ "linear" ], [ "zoom" ], 11, 0, 12, 1, 13, 1, 14, 0 ]
			},
			"layout": {
				"line-join": "round",
				"line-cap": "round"
			}
		},		
		{
			"source": "eglinton-crosstown",
			"id": "eglinton-crosstown",
			"type": "line",
			"paint": {
				"line-color": "#EEEDEA",
				"line-width": { "stops": [ [ 12, 4 ], [ 18, 10 ] ] },
				"line-opacity": [ "interpolate", [ "linear" ], [ "zoom" ], 11, 0, 12, 1, 13, 1, 14, 0 ]
			},
			"layout": {
				"line-join": "round",
				"line-cap": "round"
			}
		},
		{
			"source": "bloor-danforth-stations",
			"id": "bloor-danforth-stations",
			"type": "circle",
			"paint": {
				"circle-radius": { "stops": [ [ 12, 2 ], [ 18, 10 ] ] },
				"circle-color": "#EEEDEA",
				"circle-opacity": [ "interpolate", [ "linear" ], [ "zoom" ], 11, 0, 12, 1, 13, 1, 14, 0 ],
				"circle-stroke-width": 1,
				"circle-stroke-opacity": [ "interpolate", [ "linear" ], [ "zoom" ], 11, 0, 12, 1, 13, 1, 14, 0 ],
				"circle-stroke-color": "#00923f",
				"circle-pitch-scale": "map",
				"circle-pitch-alignment": "map"
			}
		},
		{
			"source": "yonge-university-stations",
			"id": "yonge-university-stations",
			"type": "circle",
			"paint": {
				"circle-radius": { "stops": [ [ 12, 2 ], [ 18, 10 ] ] },
				"circle-color": "#EEEDEA",
				"circle-opacity": [ "interpolate", [ "linear" ], [ "zoom" ], 11, 0, 12, 1, 13, 1, 14, 0 ],
				"circle-stroke-width": 1,
				"circle-stroke-opacity": [ "interpolate", [ "linear" ], [ "zoom" ], 11, 0, 12, 1, 13, 1, 14, 0 ],
				"circle-stroke-color": "#f8c300",
				"circle-pitch-scale": "map",
				"circle-pitch-alignment": "map"
			}
		},
		{
			"source": "eglinton-crosstown-stations",
			"id": "eglinton-crosstown-stations",
			"type": "circle",
			"paint": {
				"circle-radius": { "stops": [ [ 12, 2 ], [ 18, 8 ] ] },
				"circle-color": "#EEEDEA",
				"circle-opacity": [ "interpolate", [ "linear" ], [ "zoom" ], 11, 0, 12, 1, 13, 1, 14, 0 ],
				"circle-stroke-width": 1,
				"circle-stroke-opacity": [ "interpolate", [ "linear" ], [ "zoom" ], 11, 0, 12, 1, 13, 1, 14, 0 ],
				"circle-stroke-color": "#f67f24",
				"circle-pitch-scale": "map",
				"circle-pitch-alignment": "map"
			}
		},		
		{
			"id": "buildings-outline",
			"source": "toronto_buildings",
			"source-layer": "toronto_buildings",
			"type": "line",
			"paint": {
				"line-color": "#04304C",
				"line-width": 0.5,
				"line-opacity": ["interpolate", ["linear"], ["zoom"], 16, 0, 18, 1]
			},
			"minzoom": 16
		},
		{
			"id": "buildings",
			"source": "toronto_buildings",
			"source-layer": "toronto_buildings",
			"type": "fill-extrusion",
			"paint": {
				"fill-extrusion-color": "#EEEDEA",
				"fill-extrusion-height": [
					"case",
					["!=", ["get", "max_height"], null], ["get", "max_height"],
					["!=", ["get", "avg_height"], null], ["get", "avg_height"],
					10
				],
				"fill-extrusion-base": 0,
				"fill-extrusion-opacity": ["interpolate", ["linear"], ["zoom"], 15, 0, 16, 0.7, 17, 0.7, 18, 0]
			},
			"minzoom": 15
		},
		{
			"source": "osm",
			"id": "highway-name-minor",
			"type": "symbol",
			"source-layer": "street_labels",
			"filter": [ "in", "kind", "unclassified", "residential", "living_street" ],
			"layout": {
				"text-field": "{name}",
				"text-transform": "uppercase",
				"text-rotation-alignment": "map",
				"text-font": [ "volksans-regular" ],
				"text-letter-spacing": 0.2,
				"text-allow-overlap": true,
				"text-ignore-placement": true,
				"symbol-placement": "line",
				"symbol-spacing": 250,
				"text-anchor": "bottom",
				"text-size": [ "interpolate", [ "exponential", 1.5 ], [ "zoom" ], 10, 0, 20, 25 ],
				"symbol-sort-key": 100
			},
			"paint": {
				"text-color": "#04304C",
				"text-opacity": [ "interpolate", [ "linear" ], [ "zoom" ], 14, 0, 15, 1 ]
			},
			"minzoom": 15
		},
		{
			"source": "osm",
			"id": "highway-name-major",
			"type": "symbol",
			"source-layer": "street_labels",
			"filter": [ "in", "kind", "motorway", "trunk", "primary", "secondary", "tertiary" ],
			"layout": {
				"text-field": "{name}",
				"text-transform": "uppercase",
				"text-rotation-alignment": "map",
				"text-font": [ "volksans-regular" ],
				"text-letter-spacing": 0.2,
				"text-allow-overlap": true,
				"text-ignore-placement": true,
				"symbol-placement": "line",
				"symbol-spacing": 250,
				"text-anchor": "bottom",
				"text-size": [ "interpolate", [ "exponential", 1.5 ], [ "zoom" ], 10, 0, 20, 30 ],
				"symbol-sort-key": 100
			},
			"paint": {
				"text-color": "#04304C",
				"text-opacity": [ "interpolate", [ "linear" ], [ "zoom" ], 14, 0, 15, 1 ]
			},
			"minzoom": 15
		},
		{
			"source": "osm",
			"id": "poi-amenity",
			"type": "symbol",
			"source-layer": "pois",
			"filter": [ "all", [ "to-boolean", [ "get", "amenity" ] ], ["!=", ["get", "name"], null] ],
			"layout": {
				"icon-size": 0.6,
				"symbol-placement": "point",
				"icon-optional": true,
				"icon-image": [ "match", [ "get", "amenity" ], "arts_centre", "icon-art_gallery", "atm", "icon-atm", "bank", "icon-bank", "bar", "icon-bar", "bench", "icon-bench", "bicycle_rental", "icon-bicycle_share", "biergarten", "icon-beergarden", "cafe", "icon-cafe", "car_rental", "icon-car_rental", "car_sharing", "icon-car_rental", "car_wash", "icon-car_wash", "cinema", "icon-cinema", "college", "icon-college", "community_centre", "icon-community", "dentist", "icon-dentist", "doctors", "icon-doctor", "dog_park", "icon-dog_park", "drinking_water", "icon-drinking_water", "embassy", "icon-embassy", "fast_food", "icon-fast_food", "fire_station", "icon-fire_station", "fountain", "icon-fountain", "grave_yard", "icon-cemetery", "hospital", "icon-hospital", "hunting_stand", "icon-huntingstand", "library", "icon-library", "marketplace", "icon-marketplace", "nightclub", "icon-nightclub", "nursing_home", "icon-nursinghome", "pharmacy", "icon-pharmacy", "place_of_worship", "icon-place_of_worship", "playground", "icon-playground", "police", "icon-police", "post_box", "icon-postbox", "post_office", "icon-post", "prison", "icon-prison", "pub", "icon-beer", "recycling", "icon-recycling", "restaurant", "icon-restaurant", "school", "icon-school", "shelter", "icon-shelter", "telephone", "icon-telephone", "theatre", "icon-theatre", "toilets", "icon-toilet", "townhall", "icon-town_hall", "vending_machine", "icon-vendingmachine", "veterinary", "icon-veterinary", "waste_basket", "icon-waste_basket", "unknown" ],
				"text-font": [ "montserrat-semibold" ],
				"text-size": 10,
				"text-field": ["get", "name"],
				"text-max-width": 8,
				"text-line-height": 1,
				"icon-anchor": "bottom",
				"text-anchor": "top",
				"icon-allow-overlap": false,
				"text-allow-overlap": false,
				"icon-ignore-placement": false,
				"text-ignore-placement": false
			},
			"paint": {
				"icon-opacity": [ "interpolate", [ "linear" ], [ "zoom" ], 15, 0, 16, 0.8 ],
				"text-opacity": [ "interpolate", [ "linear" ], [ "zoom" ], 15, 0, 16, 0.8 ],
				"icon-color": [
					"case",
					["==", ["get", "amenity"], "bicycle_rental"], "#04304C",
					"#04304C"
				],
				"text-color": [
					"case",
					["==", ["get", "amenity"], "bicycle_rental"], "#04304C",
					"#04304C"
				],
				"text-halo-color": "#EEEDEA",
				"text-halo-width": 0,
				"text-halo-blur": 0
			},
			"minzoom": 15
		},
		{
			"source": "osm",
			"id": "symbol-transit",
			"type": "symbol",
			"source-layer": "public_transport",
			"filter": [ "in", "kind", "bus_stop", "tram_stop", "light_rail" ],
			"layout": {
				"text-field": "{name}",
				"icon-size": 0.6,
				"symbol-placement": "point",
				"text-font": [ "montserrat-semibold" ],
				"text-size": 10,
				"icon-anchor": "bottom",
				"text-anchor": "top",
				"icon-image": "icon-bus",
				"icon-allow-overlap": false,
				"text-allow-overlap": false,
				"icon-ignore-placement": false,
				"text-ignore-placement": false
			},
			"paint": {
				"icon-opacity": [ "interpolate", [ "linear" ], [ "zoom" ], 14, 0, 15, 0.8 ],
				"text-opacity": [ "interpolate", [ "linear" ], [ "zoom" ], 14, 0, 15, 0.8 ],
				"icon-color": "#D74417",
				"text-color": "#D74417",
				"text-halo-color": "#EEEDEA",
				"text-halo-width": 0,
				"text-halo-blur": 0
			},
			"minzoom": 14
		},
		{
			"source": "osm",
			"id": "symbol-transit-subway",
			"type": "symbol",
			"source-layer": "public_transport",
			"filter": [ "in", "kind", "station" ],
			"layout": {
				"text-field": "{name}",
				"icon-size": 0.6,
				"symbol-placement": "point",
				"text-font": [ "montserrat-semibold" ],
				"text-size": 10,
				"icon-anchor": "bottom",
				"text-anchor": "top",
				"icon-image": "icon-rail_metro",
				"icon-allow-overlap": true,
				"text-allow-overlap": true,
				"icon-ignore-placement": false,
				"text-ignore-placement": false
			},
			"paint": {
				"icon-opacity": [ "interpolate", [ "linear" ], [ "zoom" ], 13, 0, 14, 0.8 ],
				"text-opacity": [ "interpolate", [ "linear" ], [ "zoom" ], 13, 0, 14, 0.8 ],
				"icon-color": "#D74417",
				"text-color": "#D74417",
				"text-halo-color": "#EEEDEA",
				"text-halo-width": 0,
				"text-halo-blur": 0
			},
			"minzoom": 13
		},
		{
			"id": "neighborhoods-labels",
			"type": "symbol",
			"source": "toronto_neighborhoods_centroids",
			"layout": {
				"text-field": ["get", "area_name"],
				"text-size": ["interpolate", ["exponential", 1.1], ["zoom"], 10, 1, 18, 50],
				"text-font": ["volksans-regular"],
				"text-max-width": 5,
				"text-line-height": 1,
				"text-allow-overlap": true,
				"text-ignore-placement": true,
				"text-rotation-alignment": "viewport",
				"text-pitch-alignment": "viewport"
			},
			"paint": {
				"text-color": "#04304C",
				"text-opacity": ["interpolate", ["linear"], ["zoom"], 11, 0, 12, 0.4, 14, 0.4, 16, 0]
			},
			"minzoom": 11,
			"maxzoom": 16
		}
	]
}